{
  "features": [
    {
      "type": "Feature",
      "properties": {
        "TYPE": "Community Centre",
        "NAME": "Rosemont Community Centre",
        "ADDRESS": "2807 10 ST NW",
        "COMM_CODE": "CAP",
        "location": "(51.076752962370186, -114.08603750615559)"
      },
      "geometry": {
        "coordinates": [
          -114.086037,
          51.076752
        ],
        "type": "Point"
      },
      "id": "000c3dc56ef8c2df1f1e9474676a0e99"
    },
    {
      "type": "Feature",
      "properties": {
        "TYPE": "Attraction",
        "NAME": "Calaway Park",
        "ADDRESS": "Springbank RD & Trans Canada HWY",
        "COMM_CODE": "VAL",
        "location": "(51.08860103724747, -114.26874250057853)"
      },
      "geometry": {
        "coordinates": [
          -114.268742,
          51.088601
        ],
        "type": "Point"
      },
      "id": "001eaff00e15bc731e731870e12b222e"
    },
    {
      "type": "Feature",
      "properties": {
        "TYPE": "Community Centre",
        "NAME": "Glendale/Glendale Meadows Community Centre",
        "ADDRESS": "2405 Glenmount DR SW",
        "COMM_CODE": "GDL",
        "location": "(51.032998091299575, -114.14981783034104)"
      },
      "geometry": {
        "coordinates": [
          -114.149817,
          51.032998
        ],
        "type": "Point"
      },
      "id": "00da754712a8d24e55c6d9369f6afaff"
    },
    {
      "type": "Feature",
      "properties": {
        "TYPE": "Library",
        "NAME": "Seton Library",
        "ADDRESS": "4995 MARKET ST SE",
        "COMM_CODE": "SET",
        "location": "(50.88118895884824, -113.94417916235368)"
      },
      "geometry": {
        "coordinates": [
          -113.944179,
          50.881188
        ],
        "type": "Point"
      },
      "id": "01612ef91d815d680736f6ac50a60c6e"
    },
    {
      "type": "Feature",
      "properties": {
        "TYPE": "Community Centre",
        "NAME": "Silver Springs Community Centre",
        "ADDRESS": "5720 Silver Ridge DR NW",
        "COMM_CODE": "SIL",
        "location": "(51.10465213762893, -114.19253010146795)"
      },
      "geometry": {
        "coordinates": [
          -114.19253,
          51.104652
        ],
        "type": "Point"
      },
      "id": "0295de95002e9eec15dbf0fbd206f435"
    },
    {
      "type": "Feature",
      "properties": {
        "TYPE": "Community Centre",
        "NAME": "Monterey Park Community Centre",
        "ADDRESS": "2707 Catalina BV NE",
        "COMM_CODE": "MOR",
        "location": "(51.07635425278112, -113.93088467016644)"
      },
      "geometry": {
        "coordinates": [
          -113.930884,
          51.076354
        ],
        "type": "Point"
      },
      "id": "063960b9a9309d57d57807c713976852"
    },
    {
      "type": "Feature",
      "properties": {
        "TYPE": "Court",
        "NAME": "Alberta Court of Queens Bench",
        "ADDRESS": "# 604-N 601 5 ST SW",
        "COMM_CODE": "DNC",
        "location": "(51.04692560365985, -114.074123212687)"
      },
      "geometry": {
        "coordinates": [
          -114.074123,
          51.046925
        ],
        "type": "Point"
      },
      "id": "08eec36ddeaac8d5fbef7ee9528baa50"
    },
    {
      "type": "Feature",
      "properties": {
        "TYPE": "Community Centre",
        "NAME": "Citadel Community Centre",
        "ADDRESS": "860 CITADEL DR NW",
        "COMM_CODE": "CIT",
        "location": "(51.14472286350329, -114.17351992922289)"
      },
      "geometry": {
        "coordinates": [
          -114.173519,
          51.144722
        ],
        "type": "Point"
      },
      "id": "0bf71065ed2bde99246adb3847a8520b"
    },
    {
      "type": "Feature",
      "properties": {
        "TYPE": "PHS Clinic",
        "NAME": "Shaganappi Complex Health Centre",
        "ADDRESS": "3415 - 8 AV SW",
        "COMM_CODE": "SPR",
        "location": "(51.04488712410958, -114.13684189371192)"
      },
      "geometry": {
        "coordinates": [
          -114.136841,
          51.044887
        ],
        "type": "Point"
      },
      "id": "0cfbbccfe8fbb090ad0bc7e5924487cc"
    },
    {
      "type": "Feature",
      "properties": {
        "TYPE": "Community Centre",
        "NAME": "Shaganappi Community Centre",
        "ADDRESS": "2608 14 AV SW",
        "COMM_CODE": "SHG",
        "location": "(51.03991525395378, -114.11892631077158)"
      },
      "geometry": {
        "coordinates": [
          -114.118926,
          51.039915
        ],
        "type": "Point"
      },
      "id": "0d95f8f36c607db6124c5f7fc38415f1"
    },
    {
      "type": "Feature",
      "properties": {
        "TYPE": "Community Centre",
        "NAME": "Triwood Community Centre",
        "ADDRESS": "2244 Chicoutimi DR NW",
        "COMM_CODE": "CHW",
        "location": "(51.08631750676294, -114.11171536406809)"
      },
      "geometry": {
        "coordinates": [
          -114.111715,
          51.086317
        ],
        "type": "Point"
      },
      "id": "11b6472749e4034612035fe0796b2300"
    },
    {
      "type": "Feature",
      "properties": {
        "TYPE": "Community Centre",
        "NAME": "Millican/Ogden/Lynnwood Community Centre",
        "ADDRESS": "6901 20A ST SE",
        "COMM_CODE": "OGD",
        "location": "(50.991471359578625, -114.01085136252242)"
      },
      "geometry": {
        "coordinates": [
          -114.010851,
          50.991471
        ],
        "type": "Point"
      },
      "id": "1231a9cef0efd0d0be3d5276110dda93"
    },
    {
      "type": "Feature",
      "properties": {
        "TYPE": "Court",
        "NAME": "Alberta Provincial Court (Family)",
        "ADDRESS": "# 704-N 601 5 ST SW",
        "COMM_CODE": "DNC",
        "location": "(51.04692560365985, -114.074123212687)"
      },
      "geometry": {
        "coordinates": [
          -114.074123,
          51.046925
        ],
        "type": "Point"
      },
      "id": "12c9df4ff78aca36143d8d37b4914a5a"
    },
    {
      "type": "Feature",
      "properties": {
        "TYPE": "Attraction",
        "NAME": "Eau Claire Market",
        "ADDRESS": "200 Barclay PR SW",
        "COMM_CODE": "EAU",
        "location": "(51.05293242434599, -114.0676925337625)"
      },
      "geometry": {
        "coordinates": [
          -114.067692,
          51.052932
        ],
        "type": "Point"
      },
      "id": "154a70d01007315d437813f38023ff0f"
    },
    {
      "type": "Feature",
      "properties": {
        "TYPE": "Attraction",
        "NAME": "Calgary Stampede Park",
        "ADDRESS": "1410 Olympic WY SE",
        "COMM_CODE": "BLN",
        "location": "(51.03878519868122, -114.05699586689883)"
      },
      "geometry": {
        "coordinates": [
          -114.056995,
          51.038785
        ],
        "type": "Point"
      },
      "id": "17f114d76f1818fb30645f330e3287f4"
    },
    {
      "type": "Feature",
      "properties": {
        "TYPE": "Attraction",
        "NAME": "Butterfield Acres Children's Farm",
        "ADDRESS": "Rocky Ridge RD & 120 AV NW",
        "COMM_CODE": "02A",
        "location": "(51.15901955654486, -114.23582941054728)"
      },
      "geometry": {
        "coordinates": [
          -114.235829,
          51.159019
        ],
        "type": "Point"
      },
      "id": "17fe47f85943ebe1ade84732f0c311ec"
    },
    {
      "type": "Feature",
      "properties": {
        "TYPE": "Community Centre",
        "NAME": "Banff Trail Community Centre",
        "ADDRESS": "2115 20 AV NW",
        "COMM_CODE": "BNF",
        "location": "(51.07030323975356, -114.10892182051344)"
      },
      "geometry": {
        "coordinates": [
          -114.108921,
          51.070303
        ],
        "type": "Point"
      },
      "id": "19893929e258cd3788478aefef942980"
    },
    {
      "type": "Feature",
      "properties": {
        "TYPE": "Community Centre",
        "NAME": "Ramsay Community Centre",
        "ADDRESS": "1136 8 ST SE",
        "COMM_CODE": "RAM",
        "location": "(51.03842577148743, -114.04114298429343)"
      },
      "geometry": {
        "coordinates": [
          -114.041142,
          51.038425
        ],
        "type": "Point"
      },
      "id": "1c3d8d4667fce09ed71d0c23d5dfc77a"
    },
    {
      "type": "Feature",
      "properties": {
        "TYPE": "Community Centre",
        "NAME": "Rundle Community Centre",
        "ADDRESS": "2409 50 ST NE",
        "COMM_CODE": "RUN",
        "location": "(51.07467131714376, -113.96199861949505)"
      },
      "geometry": {
        "coordinates": [
          -113.961998,
          51.074671
        ],
        "type": "Point"
      },
      "id": "1cfdc184a190b0dd8922b4c4923aad73"
    },
    {
      "type": "Feature",
      "properties": {
        "TYPE": "Visitor Info",
        "NAME": "Tourism Calgary Airport",
        "ADDRESS": "2000 Airport RD NE",
        "COMM_CODE": "CIA",
        "location": "(51.13131007166948, -114.00924569013944)"
      },
      "geometry": {
        "coordinates": [
          -114.009245,
          51.13131
        ],
        "type": "Point"
      },
      "id": "1dcc22903195f819b3be6f49af3745e8"
    },
    {
      "type": "Feature",
      "properties": {
        "TYPE": "Attraction",
        "NAME": "Arts Commons",
        "ADDRESS": "205 8 AV SE",
        "COMM_CODE": "DNC",
        "location": "(51.0453421839633, -114.06005554212223)"
      },
      "geometry": {
        "coordinates": [
          -114.060055,
          51.045342
        ],
        "type": "Point"
      },
      "id": "1fa7305983b0d7019b2817579bf61414"
    },
    {
      "type": "Feature",
      "properties": {
        "TYPE": "Social Dev Ctr",
        "NAME": "North Area",
        "ADDRESS": "905 30 AV NW",
        "COMM_CODE": "MOP",
        "location": "(51.0798229863009, -114.0792565329423)"
      },
      "geometry": {
        "coordinates": [
          -114.079256,
          51.079822
        ],
        "type": "Point"
      },
      "id": "22cf4164ef58d924446406b6f9bdd9dc"
    },
    {
      "type": "Feature",
      "properties": {
        "TYPE": "Attraction",
        "NAME": "The Police Museum",
        "ADDRESS": "5111 47 ST NE",
        "COMM_CODE": "",
        "location": "(51.098823119734, -113.97092881500096)"
      },
      "geometry": {
        "coordinates": [
          -113.970928,
          51.098823
        ],
        "type": "Point"
      },
      "id": "248c47ad8fea2e58e68ae7375b4a6b83"
    },
    {
      "type": "Feature",
      "properties": {
        "TYPE": "Community Centre",
        "NAME": "Copperfield & Mahogany Community Center",
        "ADDRESS": "6 Copperstone Way SE",
        "COMM_CODE": "CPF",
        "location": "(50.91485982683862, -113.93244829251158)"
      },
      "geometry": {
        "coordinates": [
          -113.932448,
          50.914859
        ],
        "type": "Point"
      },
      "id": "2701bba26e746f4b08a682822036d06e"
    },
    {
      "type": "Feature",
      "properties": {
        "TYPE": "Hospital",
        "NAME": "Peter Lougheed Medical Centre",
        "ADDRESS": "3500 - 26 AV NE",
        "COMM_CODE": "SUN",
        "location": "(51.07901634932495, -113.98394351382268)"
      },
      "geometry": {
        "coordinates": [
          -113.983943,
          51.079016
        ],
        "type": "Point"
      },
      "id": "2a19032aaf446bfffa23d1033d21bc44"
    },
    {
      "type": "Feature",
      "properties": {
        "TYPE": "Community Centre",
        "NAME": "Temple Community Centre",
        "ADDRESS": "167 Templegreen RD NE",
        "COMM_CODE": "TEM",
        "location": "(51.087409341889156, -113.94485394505242)"
      },
      "geometry": {
        "coordinates": [
          -113.944853,
          51.087409
        ],
        "type": "Point"
      },
      "id": "2a445af60766fecffb1bf33b5644fc8b"
    },
    {
      "type": "Feature",
      "properties": {
        "TYPE": "Court",
        "NAME": "Alberta Provincial Court (Traffic)",
        "ADDRESS": "# 203-S 601 5 ST SW",
        "COMM_CODE": "DNC",
        "location": "(51.04692560365985, -114.074123212687)"
      },
      "geometry": {
        "coordinates": [
          -114.074123,
          51.046925
        ],
        "type": "Point"
      },
      "id": "2c9cd91b715c61f131701c322eacc210"
    },
    {
      "type": "Feature",
      "properties": {
        "TYPE": "Attraction",
        "NAME": "Fish Creek Provincial Park (Bow Valley Ranch)",
        "ADDRESS": "15979 Bow Bottom TR SE",
        "COMM_CODE": "FPK",
        "location": "(50.909338581108344, -114.01510755024893)"
      },
      "geometry": {
        "coordinates": [
          -114.015107,
          50.909338
        ],
        "type": "Point"
      },
      "id": "2cccd8d9302c58f9de121a3959536d06"
    },
    {
      "type": "Feature",
      "properties": {
        "TYPE": "Community Centre",
        "NAME": "Chinook Park/Kelvin Grove/Eagle Ridge Community Centre",
        "ADDRESS": "1015 73 AV SW",
        "COMM_CODE": "KEL",
        "location": "(50.98759577417002, -114.08494774002713)"
      },
      "geometry": {
        "coordinates": [
          -114.084947,
          50.987595
        ],
        "type": "Point"
      },
      "id": "2dd04f3758d7f92699db64157b342a46"
    },
    {
      "type": "Feature",
      "properties": {
        "TYPE": "Attraction",
        "NAME": "Bow Habitat Station",
        "ADDRESS": "1440 17A ST SE",
        "COMM_CODE": "ING",
        "location": "(51.041986727725785, -114.01765842529399)"
      },
      "geometry": {
        "coordinates": [
          -114.017658,
          51.041986
        ],
        "type": "Point"
      },
      "id": "2ea9daeae18376ed6e0f23f63448e5f9"
    },
    {
      "type": "Feature",
      "properties": {
        "TYPE": "Attraction",
        "NAME": "Contemporary Calgary Art Gallery",
        "ADDRESS": "117 8 AV SW",
        "COMM_CODE": "DNC",
        "location": "(51.04546080414715, -114.06416513122672)"
      },
      "geometry": {
        "coordinates": [
          -114.064165,
          51.04546
        ],
        "type": "Point"
      },
      "id": "3105171e6132704d0c3e1a8f57588743"
    },
    {
      "type": "Feature",
      "properties": {
        "TYPE": "PHS Clinic",
        "NAME": "Acadia Community Health Centre",
        "ADDRESS": "151 - 86 AV SE",
        "COMM_CODE": "ACA",
        "location": "(50.97507203441003, -114.0709401043907)"
      },
      "geometry": {
        "coordinates": [
          -114.07094,
          50.975072
        ],
        "type": "Point"
      },
      "id": "31bd6cd07deae55de21797c41aa0bd4e"
    },
    {
      "type": "Feature",
      "properties": {
        "TYPE": "Hospital",
        "NAME": "Alberta Children's Hospital",
        "ADDRESS": "2888 Shaganappi Trail NW",
        "COMM_CODE": "UOC",
        "location": "(51.07455988033879, -114.14795761511185)"
      },
      "geometry": {
        "coordinates": [
          -114.147957,
          51.074559
        ],
        "type": "Point"
      },
      "id": "31c977c2d886afc65521a2c07f3ccb20"
    },
    {
      "type": "Feature",
      "properties": {
        "TYPE": "Attraction",
        "NAME": "Aero Space Museum of Calgary",
        "ADDRESS": "4629 McCall WY NE",
        "COMM_CODE": "PEG",
        "location": "(51.094013925454185, -114.01181998844031)"
      },
      "geometry": {
        "coordinates": [
          -114.011819,
          51.094013
        ],
        "type": "Point"
      },
      "id": "327a8cfbe4aed2e97b7d0d206c7aa308"
    },
    {
      "type": "Feature",
      "properties": {
        "TYPE": "Community Centre",
        "NAME": "Montgomery Community Centre",
        "ADDRESS": "5003 - 16 AV NW",
        "COMM_CODE": "MON",
        "location": "(51.07160849280569, -114.16560579916423)"
      },
      "geometry": {
        "coordinates": [
          -114.165605,
          51.071608
        ],
        "type": "Point"
      },
      "id": "34d136abdceb399ce444ce59c8faf365"
    },
    {
      "type": "Feature",
      "properties": {
        "TYPE": "Community Centre",
        "NAME": "Kingsland Community Centre",
        "ADDRESS": "505 78 AV SW",
        "COMM_CODE": "KIN",
        "location": "(50.982957465890294, -114.07401734259619)"
      },
      "geometry": {
        "coordinates": [
          -114.074017,
          50.982957
        ],
        "type": "Point"
      },
      "id": "364e0392e0a8ecc64519a46cdde76ea2"
    },
    {
      "type": "Feature",
      "properties": {
        "TYPE": "Community Centre",
        "NAME": "Acadia Community Centre",
        "ADDRESS": "240 90 AV SE",
        "COMM_CODE": "ACA",
        "location": "(50.973170463392194, -114.06514256397735)"
      },
      "geometry": {
        "coordinates": [
          -114.065142,
          50.97317
        ],
        "type": "Point"
      },
      "id": "37db09445a1fe12ab4f71e4f591558c4"
    },
    {
      "type": "Feature",
      "properties": {
        "TYPE": "Community Centre",
        "NAME": "Queensland / Diamond Cove Community Centre",
        "ADDRESS": "649 Queensland DR SE",
        "COMM_CODE": "QLD",
        "location": "(50.93960080590387, -114.0216630923592)"
      },
      "geometry": {
        "coordinates": [
          -114.021663,
          50.9396
        ],
        "type": "Point"
      },
      "id": "388f18570c5d844f6b306a505ac51b4b"
    },
    {
      "type": "Feature",
      "properties": {
        "TYPE": "Community Centre",
        "NAME": "Whitehorn Community Centre",
        "ADDRESS": "228 Whitehorn RD NE",
        "COMM_CODE": "WHI",
        "location": "(51.08878861800125, -113.96694996868959)"
      },
      "geometry": {
        "coordinates": [
          -113.966949,
          51.088788
        ],
        "type": "Point"
      },
      "id": "3ad35adaad94d2fc71ef02c369f26ef4"
    },
    {
      "type": "Feature",
      "properties": {
        "TYPE": "Community Centre",
        "NAME": "Mount Royal Community Centre",
        "ADDRESS": "2317 10 ST SW",
        "COMM_CODE": "UMR",
        "location": "(51.0317347745017, -114.08605677865727)"
      },
      "geometry": {
        "coordinates": [
          -114.086056,
          51.031734
        ],
        "type": "Point"
      },
      "id": "3d09eec131ac50ba04411cd0b13341b9"
    },
    {
      "type": "Feature",
      "properties": {
        "TYPE": "Library",
        "NAME": "Nose Hill Library",
        "ADDRESS": "1530 NORTHMOUNT DR NW",
        "COMM_CODE": "BRE",
        "location": "(51.09654291244681, -114.13883468496591)"
      },
      "geometry": {
        "coordinates": [
          -114.138834,
          51.096542
        ],
        "type": "Point"
      },
      "id": "3e3bccd5275cf2c553d1e8fa1949688c"
    },
    {
      "type": "Feature",
      "properties": {
        "TYPE": "Attraction",
        "NAME": "Rocky Mountaineer Rail Tours",
        "ADDRESS": "115 9 AV SW",
        "COMM_CODE": "DNC",
        "location": "(51.044087065157676, -114.06245018496966)"
      },
      "geometry": {
        "coordinates": [
          -114.06245,
          51.044087
        ],
        "type": "Point"
      },
      "id": "3f6f9ab4409d1b8bc0ef5c4afe01225d"
    },
    {
      "type": "Feature",
      "properties": {
        "TYPE": "Community Centre",
        "NAME": "Palliser, Bayview, Pumphill Community Centre",
        "ADDRESS": "2323 Palliser DR SW",
        "COMM_CODE": "PAL",
        "location": "(50.968630143965065, -114.11372575942883)"
      },
      "geometry": {
        "coordinates": [
          -114.113725,
          50.96863
        ],
        "type": "Point"
      },
      "id": "402f7aee0976c745803e9df7b78876f1"
    },
    {
      "type": "Feature",
      "properties": {
        "TYPE": "Community Centre",
        "NAME": "Riverbend Community Centre",
        "ADDRESS": "19 Rivervalley DR SE",
        "COMM_CODE": "RIV",
        "location": "(50.97245358267971, -114.01638539321948)"
      },
      "geometry": {
        "coordinates": [
          -114.016385,
          50.972453
        ],
        "type": "Point"
      },
      "id": "466804bbc63b760be7e23c39632839a0"
    },
    {
      "type": "Feature",
      "properties": {
        "TYPE": "Community Centre",
        "NAME": "Falconridge/Castleridge Community Centre",
        "ADDRESS": "95 Falshire DR NE",
        "COMM_CODE": "FAL",
        "location": "(51.10454915477844, -113.94630797739877)"
      },
      "geometry": {
        "coordinates": [
          -113.946307,
          51.104549
        ],
        "type": "Point"
      },
      "id": "470909082b871003aae3d972f440b758"
    },
    {
      "type": "Feature",
      "properties": {
        "TYPE": "Attraction",
        "NAME": "Olympic Plaza",
        "ADDRESS": "228 8 AV SE",
        "COMM_CODE": "DNC",
        "location": "(51.04624513319553, -114.05841869481438)"
      },
      "geometry": {
        "coordinates": [
          -114.058418,
          51.046245
        ],
        "type": "Point"
      },
      "id": "4ad82a29749baf4a8f41c5b07ed1d0e4"
    },
    {
      "type": "Feature",
      "properties": {
        "TYPE": "Library",
        "NAME": "Signal Hill Library",
        "ADDRESS": "5994 SIGNAL HILL CT SW",
        "COMM_CODE": "SIG",
        "location": "(51.01879983635221, -114.17536278617024)"
      },
      "geometry": {
        "coordinates": [
          -114.175362,
          51.018799
        ],
        "type": "Point"
      },
      "id": "4d29bd411b293f92a6eacc6dde22fb16"
    },
    {
      "type": "Feature",
      "properties": {
        "TYPE": "Community Centre",
        "NAME": "Varsity Community Centre",
        "ADDRESS": "4303 Varsity DR NW",
        "COMM_CODE": "VAR",
        "location": "(51.091982801745985, -114.14923384882196)"
      },
      "geometry": {
        "coordinates": [
          -114.149233,
          51.091982
        ],
        "type": "Point"
      },
      "id": "4df149dda6127a5b5de299b9017c730a"
    },
    {
      "type": "Feature",
      "properties": {
        "TYPE": "Community Centre",
        "NAME": "Richmond/Knob Hill Community Centre",
        "ADDRESS": "2433 26 AV SW",
        "COMM_CODE": "RIC",
        "location": "(51.02992081967741, -114.11703482233399)"
      },
      "geometry": {
        "coordinates": [
          -114.117034,
          51.02992
        ],
        "type": "Point"
      },
      "id": "4e37a143d47e4e1c4fd39c468421197c"
    },
    {
      "type": "Feature",
      "properties": {
        "TYPE": "Attraction",
        "NAME": "Heritage Park Historical Village",
        "ADDRESS": "1900 Heritage Dr SW",
        "COMM_CODE": "GPK",
        "location": "(50.98483370113588, -114.10824382482379)"
      },
      "geometry": {
        "coordinates": [
          -114.108243,
          50.984833
        ],
        "type": "Point"
      },
      "id": "4eb0188c6e19e3d7935c380011f77ac0"
    },
    {
      "type": "Feature",
      "properties": {
        "TYPE": "Attraction",
        "NAME": "WinSport's Canada Olympic Park",
        "ADDRESS": "88 Canada Olympic RD SW",
        "COMM_CODE": "COP",
        "location": "(51.082399702606445, -114.21540689257601)"
      },
      "geometry": {
        "coordinates": [
          -114.215406,
          51.082399
        ],
        "type": "Point"
      },
      "id": "4f6d21b0c22a96dbc77607320592dc3e"
    },
    {
      "type": "Feature",
      "properties": {
        "TYPE": "Community Centre",
        "NAME": "Tuxedo Park Community Centre",
        "ADDRESS": "202 29 AV NE",
        "COMM_CODE": "TUX",
        "location": "(51.078917718588066, -114.0596401440611)"
      },
      "geometry": {
        "coordinates": [
          -114.05964,
          51.078917
        ],
        "type": "Point"
      },
      "id": "4fe8eaa9a2d79668cc220e54b8e558ff"
    },
    {
      "type": "Feature",
      "properties": {
        "TYPE": "Community Centre",
        "NAME": "Meadowlark Park Community Centre",
        "ADDRESS": "623 58 AV SW",
        "COMM_CODE": "MEA",
        "location": "(51.00107649024973, -114.07781461377053)"
      },
      "geometry": {
        "coordinates": [
          -114.077814,
          51.001076
        ],
        "type": "Point"
      },
      "id": "50400d6f67c5bd6220d4c30f2c408e54"
    },
    {
      "type": "Feature",
      "properties": {
        "TYPE": "Community Centre",
        "NAME": "Hillhurst/Sunnyside Community Centre",
        "ADDRESS": "1320 5 AV NW",
        "COMM_CODE": "HIL",
        "location": "(51.057541635120565, -114.09251724218966)"
      },
      "geometry": {
        "coordinates": [
          -114.092517,
          51.057541
        ],
        "type": "Point"
      },
      "id": "5141508a6468d83aee22fac80742fe05"
    },
    {
      "type": "Feature",
      "properties": {
        "TYPE": "Social Dev Ctr",
        "NAME": "Thornhill",
        "ADDRESS": "6617 CENTRE ST NW",
        "COMM_CODE": "HUN",
        "location": "(51.112101279375736, -114.06333245492493)"
      },
      "geometry": {
        "coordinates": [
          -114.063332,
          51.112101
        ],
        "type": "Point"
      },
      "id": "55a11d846297a19811596b96fc03518e"
    },
    {
      "type": "Feature",
      "properties": {
        "TYPE": "Community Centre",
        "NAME": "Bowness / Greenwood / Greenbriar Community Centre",
        "ADDRESS": "7904 43 AV NW",
        "COMM_CODE": "BOW",
        "location": "(51.09166253553679, -114.20085583758586)"
      },
      "geometry": {
        "coordinates": [
          -114.200855,
          51.091662
        ],
        "type": "Point"
      },
      "id": "55c1a4bacc41dc632f066b93070d239f"
    },
    {
      "type": "Feature",
      "properties": {
        "TYPE": "Library",
        "NAME": "Rocky Ridge Library",
        "ADDRESS": "11300 ROCKY RIDGE RD NW",
        "COMM_CODE": "01K",
        "location": "(51.15704802439875, -114.23122131314075)"
      },
      "geometry": {
        "coordinates": [
          -114.231221,
          51.157048
        ],
        "type": "Point"
      },
      "id": "5736857129e9fe2a3774fa294a648856"
    },
    {
      "type": "Feature",
      "properties": {
        "TYPE": "Library",
        "NAME": "Southwood Library",
        "ADDRESS": "924 SOUTHLAND DR SW",
        "COMM_CODE": "SOW",
        "location": "(50.96358655798522, -114.08617997642551)"
      },
      "geometry": {
        "coordinates": [
          -114.086179,
          50.963586
        ],
        "type": "Point"
      },
      "id": "5836b42157bacdf821031ad542cf206d"
    },
    {
      "type": "Feature",
      "properties": {
        "TYPE": "Attraction",
        "NAME": "Trans Canada Trail Pavillion",
        "ADDRESS": "Bow River Pathway at 2 ST SW",
        "COMM_CODE": "DNC",
        "location": "(51.05367059958027, -114.06613232390751)"
      },
      "geometry": {
        "coordinates": [
          -114.066132,
          51.05367
        ],
        "type": "Point"
      },
      "id": "58c4c5d2c7167be991d6805f4888b24c"
    },
    {
      "type": "Feature",
      "properties": {
        "TYPE": "Library",
        "NAME": "Sage Hill Library",
        "ADDRESS": "19 SAGE HILL PS NW",
        "COMM_CODE": "SGH",
        "location": "(51.16891134721613, -114.14710286902496)"
      },
      "geometry": {
        "coordinates": [
          -114.147102,
          51.168911
        ],
        "type": "Point"
      },
      "id": "5af40c1bddafd6a2655517d4e8c254a3"
    },
    {
      "type": "Feature",
      "properties": {
        "TYPE": "Attraction",
        "NAME": "Shaw Millenium Park",
        "ADDRESS": "1220 9 AV SW",
        "COMM_CODE": "DNW",
        "location": "(51.04633761662411, -114.09092733904481)"
      },
      "geometry": {
        "coordinates": [
          -114.090927,
          51.046337
        ],
        "type": "Point"
      },
      "id": "5d35661ad181b0202901863ebed30329"
    },
    {
      "type": "Feature",
      "properties": {
        "TYPE": "Community Centre",
        "NAME": "Canyon Meadows Community Centre",
        "ADDRESS": "848 Cantabrian DR SW",
        "COMM_CODE": "CAN",
        "location": "(50.9462137346422, -114.07884464053892)"
      },
      "geometry": {
        "coordinates": [
          -114.078844,
          50.946213
        ],
        "type": "Point"
      },
      "id": "5dbe0f92b6493d4b5ca9ad03cc66bfd8"
    },
    {
      "type": "Feature",
      "properties": {
        "TYPE": "Community Centre",
        "NAME": "Deer Run Community Centre",
        "ADDRESS": "2223 146 AV SE",
        "COMM_CODE": "DRN",
        "location": "(50.92175537205221, -114.00794165335118)"
      },
      "geometry": {
        "coordinates": [
          -114.007941,
          50.921755
        ],
        "type": "Point"
      },
      "id": "5dda6f562ce1ff5cb73ec6a62e0a7991"
    },
    {
      "type": "Feature",
      "properties": {
        "TYPE": "Community Centre",
        "NAME": "Rosedale Community Centre",
        "ADDRESS": "901 11 AV NW",
        "COMM_CODE": "RDL",
        "location": "(51.06215284787542, -114.08143411839842)"
      },
      "geometry": {
        "coordinates": [
          -114.081434,
          51.062152
        ],
        "type": "Point"
      },
      "id": "60e45c2515a4a9d0f0e2d3a7c0155109"
    },
    {
      "type": "Feature",
      "properties": {
        "TYPE": "Attraction",
        "NAME": "Telus Convention Centre",
        "ADDRESS": "120 9 AV SE",
        "COMM_CODE": "DNC",
        "location": "(51.04472593510657, -114.06181929820227)"
      },
      "geometry": {
        "coordinates": [
          -114.061819,
          51.044725
        ],
        "type": "Point"
      },
      "id": "64bc5ee3fffac45fb8d00d357403f729"
    },
    {
      "type": "Feature",
      "properties": {
        "TYPE": "Court",
        "NAME": "Alberta Court of Appeal",
        "ADDRESS": "2600 450 1 ST SW",
        "COMM_CODE": "DNC",
        "location": "(51.04872179174605, -114.0646680885537)"
      },
      "geometry": {
        "coordinates": [
          -114.064668,
          51.048721
        ],
        "type": "Point"
      },
      "id": "65b99ff315784f7504fa6fd26d643347"
    },
    {
      "type": "Feature",
      "properties": {
        "TYPE": "Community Centre",
        "NAME": "Braeside Community Centre",
        "ADDRESS": "11024 Braeside DR SW",
        "COMM_CODE": "BRA",
        "location": "(50.95434611067999, -114.10203640180053)"
      },
      "geometry": {
        "coordinates": [
          -114.102036,
          50.954346
        ],
        "type": "Point"
      },
      "id": "665c5bbfaf37905b9197f7d631dd7775"
    },
    {
      "type": "Feature",
      "properties": {
        "TYPE": "Library",
        "NAME": "Crowfoot Library",
        "ADDRESS": "8665 NOSE HILL DR NW",
        "COMM_CODE": "ARB",
        "location": "(51.13086973775027, -114.19254054018799)"
      },
      "geometry": {
        "coordinates": [
          -114.19254,
          51.130869
        ],
        "type": "Point"
      },
      "id": "6667f1a9a49fa13368a573f30f996414"
    },
    {
      "type": "Feature",
      "properties": {
        "TYPE": "Visitor Info",
        "NAME": "Calgary City Hall & Municipal Complex",
        "ADDRESS": "800 Macleod TR SE",
        "COMM_CODE": "DNC",
        "location": "(51.04536904425736, -114.05705557152875)"
      },
      "geometry": {
        "coordinates": [
          -114.057055,
          51.045369
        ],
        "type": "Point"
      },
      "id": "681c85e6e52b6377ec9ecb6ef0e7408d"
    },
    {
      "type": "Feature",
      "properties": {
        "TYPE": "Library",
        "NAME": "Country Hills Library",
        "ADDRESS": "11950 Country Village Link NE",
        "COMM_CODE": "CHV",
        "location": "(51.156930605182936, -114.0647513142184)"
      },
      "geometry": {
        "coordinates": [
          -114.064751,
          51.15693
        ],
        "type": "Point"
      },
      "id": "6a43185c14bbee3529b4679c5076c7c2"
    },
    {
      "type": "Feature",
      "properties": {
        "TYPE": "Court",
        "NAME": "Alberta Provincial Court (Civil)",
        "ADDRESS": "# 606-S 601 5 ST SW",
        "COMM_CODE": "DNC",
        "location": "(51.04692560365985, -114.074123212687)"
      },
      "geometry": {
        "coordinates": [
          -114.074123,
          51.046925
        ],
        "type": "Point"
      },
      "id": "6a8f6ec3b7e67c772e575c8146ada8d1"
    },
    {
      "type": "Feature",
      "properties": {
        "TYPE": "PHS Clinic",
        "NAME": "Northwest Community Health Centre",
        "ADDRESS": "109 1829 Ranchlands BV NW",
        "COMM_CODE": "RAN",
        "location": "(51.123333552258295, -114.1971615208791)"
      },
      "geometry": {
        "coordinates": [
          -114.197161,
          51.123333
        ],
        "type": "Point"
      },
      "id": "6ac0dec4cd58f25f6a4be5c459a791f6"
    },
    {
      "type": "Feature",
      "properties": {
        "TYPE": "Community Centre",
        "NAME": "Glenbrook Community Centre",
        "ADDRESS": "3524 45 ST SW",
        "COMM_CODE": "GBK",
        "location": "(51.0229857234291, -114.15208565393783)"
      },
      "geometry": {
        "coordinates": [
          -114.152085,
          51.022985
        ],
        "type": "Point"
      },
      "id": "6ae9b32e900edc11d798cf2ae6128dd2"
    },
    {
      "type": "Feature",
      "properties": {
        "TYPE": "Community Centre",
        "NAME": "Penbrooke Meadows Community Centre",
        "ADDRESS": "6100 8 AV SE",
        "COMM_CODE": "PEN",
        "location": "(51.04590883610406, -113.94632973926619)"
      },
      "geometry": {
        "coordinates": [
          -113.946329,
          51.045908
        ],
        "type": "Point"
      },
      "id": "6b733bf15a607260a9caf8aeae631a13"
    },
    {
      "type": "Feature",
      "properties": {
        "TYPE": "Hospital",
        "NAME": "Rockyview General Hospital",
        "ADDRESS": "7007 - 14 ST SW",
        "COMM_CODE": "EAG",
        "location": "(50.991828888017004, -114.09632069904508)"
      },
      "geometry": {
        "coordinates": [
          -114.09632,
          50.991828
        ],
        "type": "Point"
      },
      "id": "6b745059d40552c667cbe1ad27935146"
    },
    {
      "type": "Feature",
      "properties": {
        "TYPE": "Attraction",
        "NAME": "Olympic Oval - University of Calgary",
        "ADDRESS": "188 University CO NW",
        "COMM_CODE": "UOC",
        "location": "(51.07703331008856, -114.13568838838447)"
      },
      "geometry": {
        "coordinates": [
          -114.135688,
          51.077033
        ],
        "type": "Point"
      },
      "id": "6c3616d48b815d14670ef42ebf873965"
    },
    {
      "type": "Feature",
      "properties": {
        "TYPE": "Attraction",
        "NAME": "Calgary Zoo, Botanical Garden & Prehistoric Park",
        "ADDRESS": "1300 Zoo RD NE",
        "COMM_CODE": "BRD",
        "location": "(51.04406589283427, -114.03163939960726)"
      },
      "geometry": {
        "coordinates": [
          -114.031639,
          51.044065
        ],
        "type": "Point"
      },
      "id": "6c66c7ddcfc8a8dd9130bf2929803484"
    },
    {
      "type": "Feature",
      "properties": {
        "TYPE": "Community Centre",
        "NAME": "Shawnessy Community Centre",
        "ADDRESS": "224 Shawmeadows RD SW",
        "COMM_CODE": "SHN",
        "location": "(50.90670901060858, -114.07515738296392)"
      },
      "geometry": {
        "coordinates": [
          -114.075157,
          50.906709
        ],
        "type": "Point"
      },
      "id": "6de18febb13fc13957b51e0afe7a1460"
    },
    {
      "type": "Feature",
      "properties": {
        "TYPE": "Community Centre",
        "NAME": "Killarney/Glengarry Community Centre",
        "ADDRESS": "2828 28 ST SW",
        "COMM_CODE": "KIL",
        "location": "(51.02871920189859, -114.12768294840178)"
      },
      "geometry": {
        "coordinates": [
          -114.127682,
          51.028719
        ],
        "type": "Point"
      },
      "id": "6ec1ae84e309dd3400f3ac54d8ed8f23"
    },
    {
      "type": "Feature",
      "properties": {
        "TYPE": "Court",
        "NAME": "Alberta Provincial Court (Youth)",
        "ADDRESS": "# 201-N 601 5 ST SW",
        "COMM_CODE": "DNC",
        "location": "(51.04692560365985, -114.074123212687)"
      },
      "geometry": {
        "coordinates": [
          -114.074123,
          51.046925
        ],
        "type": "Point"
      },
      "id": "6ef5b2b94d0e6c183a8859ccbf05c374"
    },
    {
      "type": "Feature",
      "properties": {
        "TYPE": "Community Centre",
        "NAME": "Crescent Heights Community Centre",
        "ADDRESS": "1101 2 ST NW",
        "COMM_CODE": "CRE",
        "location": "(51.06194408124397, -114.06798512418247)"
      },
      "geometry": {
        "coordinates": [
          -114.067985,
          51.061944
        ],
        "type": "Point"
      },
      "id": "70657b6303c3197da13b3e25acb3130c"
    },
    {
      "type": "Feature",
      "properties": {
        "TYPE": "Community Centre",
        "NAME": "Albert Park / Radisson Heights Community Centre",
        "ADDRESS": "2636 12 AV SE",
        "COMM_CODE": "ALB",
        "location": "(51.04212975529989, -113.99855566623944)"
      },
      "geometry": {
        "coordinates": [
          -113.998555,
          51.042129
        ],
        "type": "Point"
      },
      "id": "706f1d4451672b8bffb249e3a1d93143"
    },
    {
      "type": "Feature",
      "properties": {
        "TYPE": "Visitor Info",
        "NAME": "Tourism Calgary Central Office",
        "ADDRESS": "200 238 11 AV SW",
        "COMM_CODE": "BLN",
        "location": "(51.0427491978594, -114.06752118869719)"
      },
      "geometry": {
        "coordinates": [
          -114.067521,
          51.042749
        ],
        "type": "Point"
      },
      "id": "717e3fd95c5b8e16154f1fc4d68572a7"
    },
    {
      "type": "Feature",
      "properties": {
        "TYPE": "Attraction",
        "NAME": "Calgary Firefighters Museum",
        "ADDRESS": "4124 11 ST SE",
        "COMM_CODE": "HIF",
        "location": "(51.01846693545822, -114.03657793516909)"
      },
      "geometry": {
        "coordinates": [
          -114.036577,
          51.018466
        ],
        "type": "Point"
      },
      "id": "73180356bd7f93e5121b360374e9cd6e"
    },
    {
      "type": "Feature",
      "properties": {
        "TYPE": "Community Centre",
        "NAME": "Cedarbrae Community Centre",
        "ADDRESS": "11024 Oakfield DR SW",
        "COMM_CODE": "CED",
        "location": "(50.9545475196074, -114.1298810146555)"
      },
      "geometry": {
        "coordinates": [
          -114.129881,
          50.954547
        ],
        "type": "Point"
      },
      "id": "747bc9ccc98b9b261294244fde66cdc1"
    },
    {
      "type": "Feature",
      "properties": {
        "TYPE": "Community Centre",
        "NAME": "Erin Woods Community Centre",
        "ADDRESS": "83 Erin Park DR SE",
        "COMM_CODE": "ERI",
        "location": "(51.02289563481009, -113.96373751726838)"
      },
      "geometry": {
        "coordinates": [
          -113.963737,
          51.022895
        ],
        "type": "Point"
      },
      "id": "75e756fbf352b11d897a1f687a102a95"
    },
    {
      "type": "Feature",
      "properties": {
        "TYPE": "Attraction",
        "NAME": "Southern Alberta Jubilee Auditorium",
        "ADDRESS": "1415 14 AV NW",
        "COMM_CODE": "HIL",
        "location": "(51.06360627614137, -114.09224487171537)"
      },
      "geometry": {
        "coordinates": [
          -114.092244,
          51.063606
        ],
        "type": "Point"
      },
      "id": "78d175de1f00907ccaf00eec35e9c457"
    },
    {
      "type": "Feature",
      "properties": {
        "TYPE": "Community Centre",
        "NAME": "Cliffe Bungalow/Mission Community Association",
        "ADDRESS": "2201 Cliff ST SW",
        "COMM_CODE": "CLI",
        "location": "(51.033361430010245, -114.07608458241921)"
      },
      "geometry": {
        "coordinates": [
          -114.076084,
          51.033361
        ],
        "type": "Point"
      },
      "id": "791077a2834eae129dcabb3666ec59f2"
    },
    {
      "type": "Feature",
      "properties": {
        "TYPE": "Library",
        "NAME": "Fish Creek Library",
        "ADDRESS": "11161 BONAVENTURE DR SE",
        "COMM_CODE": "WIL",
        "location": "(50.95171805364437, -114.06091141872936)"
      },
      "geometry": {
        "coordinates": [
          -114.060911,
          50.951718
        ],
        "type": "Point"
      },
      "id": "7ba3bed277184fc5b8132037cae2aed0"
    },
    {
      "type": "Feature",
      "properties": {
        "TYPE": "Library",
        "NAME": "Giuffre Family Library",
        "ADDRESS": "3223 14 ST SW",
        "COMM_CODE": "SOC",
        "location": "(51.025445819741115, -114.09550344771091)"
      },
      "geometry": {
        "coordinates": [
          -114.095503,
          51.025445
        ],
        "type": "Point"
      },
      "id": "7bcba3f12ef905d76270f27d917dbac9"
    },
    {
      "type": "Feature",
      "properties": {
        "TYPE": "Attraction",
        "NAME": "Nickle Arts Museum (University of Calgary)",
        "ADDRESS": "410 University CO NW",
        "COMM_CODE": "UOC",
        "location": "(51.07745245533072, -114.12981317228409)"
      },
      "geometry": {
        "coordinates": [
          -114.129813,
          51.077452
        ],
        "type": "Point"
      },
      "id": "7c7d8ca72fd893cce3a7dc12123fce7c"
    },
    {
      "type": "Feature",
      "properties": {
        "TYPE": "Community Centre",
        "NAME": "Oakridge Community Centre",
        "ADDRESS": "9504 Oakfield DR SW",
        "COMM_CODE": "OAK",
        "location": "(50.96876642604296, -114.13199522810099)"
      },
      "geometry": {
        "coordinates": [
          -114.131995,
          50.968766
        ],
        "type": "Point"
      },
      "id": "7d24e6ad685638750ac7572d253a3405"
    },
    {
      "type": "Feature",
      "properties": {
        "TYPE": "Community Centre",
        "NAME": "Parkhill/Stanley Park Community Centre",
        "ADDRESS": "4013 Stanley RD SW",
        "COMM_CODE": "PKH",
        "location": "(51.018478175395174, -114.06476159523832)"
      },
      "geometry": {
        "coordinates": [
          -114.064761,
          51.018478
        ],
        "type": "Point"
      },
      "id": "7e9613149a205d19555f8740b674c492"
    },
    {
      "type": "Feature",
      "properties": {
        "TYPE": "Hospital",
        "NAME": "Foothills Hospital",
        "ADDRESS": "1403 - 29 ST NW",
        "COMM_CODE": "STA",
        "location": "(51.064182937103176, -114.13217660430655)"
      },
      "geometry": {
        "coordinates": [
          -114.132176,
          51.064182
        ],
        "type": "Point"
      },
      "id": "7f49b363a3d3bc58fdbd44f004934b88"
    },
    {
      "type": "Feature",
      "properties": {
        "TYPE": "Community Centre",
        "NAME": "McKenzie Lake Community Centre",
        "ADDRESS": "16198 McKenzie Lake WY SE",
        "COMM_CODE": "MCK",
        "location": "(50.90627869856965, -113.98356700064974)"
      },
      "geometry": {
        "coordinates": [
          -113.983567,
          50.906278
        ],
        "type": "Point"
      },
      "id": "7f9a1c99984b9faf828650f52b34a820"
    },
    {
      "type": "Feature",
      "properties": {
        "TYPE": "Court",
        "NAME": "Alberta Provincial Court (Criminal)",
        "ADDRESS": "# 402-S 601 5 ST SW",
        "COMM_CODE": "DNC",
        "location": "(51.04692560365985, -114.074123212687)"
      },
      "geometry": {
        "coordinates": [
          -114.074123,
          51.046925
        ],
        "type": "Point"
      },
      "id": "84773a5237cae1261ce9ebe07af40c00"
    },
    {
      "type": "Feature",
      "properties": {
        "TYPE": "Community Centre",
        "NAME": "Ranchlands Community Centre",
        "ADDRESS": "7713 Ranchview DR NW",
        "COMM_CODE": "RAN",
        "location": "(51.11959514517543, -114.17951073267321)"
      },
      "geometry": {
        "coordinates": [
          -114.17951,
          51.119595
        ],
        "type": "Point"
      },
      "id": "8485f28c5ec64da21f92ac3959a3e683"
    },
    {
      "type": "Feature",
      "properties": {
        "TYPE": "Community Centre",
        "NAME": "Brentwood Community Centre",
        "ADDRESS": "5107 33 ST NW",
        "COMM_CODE": "BRE",
        "location": "(51.09750324772107, -114.137844810739)"
      },
      "geometry": {
        "coordinates": [
          -114.137844,
          51.097503
        ],
        "type": "Point"
      },
      "id": "84f1ee6cf5e4f295abfdeb34e38ba601"
    },
    {
      "type": "Feature",
      "properties": {
        "TYPE": "Community Centre",
        "NAME": "Scenic Acres Community Centre",
        "ADDRESS": "8825 Scurfield DR NW",
        "COMM_CODE": "SCE",
        "location": "(51.12170816918224, -114.21476435610282)"
      },
      "geometry": {
        "coordinates": [
          -114.214764,
          51.121708
        ],
        "type": "Point"
      },
      "id": "853e08bfe573d8c33d0983b39a512775"
    },
    {
      "type": "Feature",
      "properties": {
        "TYPE": "Library",
        "NAME": "Central Library",
        "ADDRESS": "800 3 ST SE",
        "COMM_CODE": "DNC",
        "location": "(51.045511752813894, -114.05517536017112)"
      },
      "geometry": {
        "coordinates": [
          -114.055175,
          51.045511
        ],
        "type": "Point"
      },
      "id": "85abbd63e33b7d82b46820703ea25899"
    },
    {
      "type": "Feature",
      "properties": {
        "TYPE": "Community Centre",
        "NAME": "Dover Community Centre",
        "ADDRESS": "3033 30 AV SE",
        "COMM_CODE": "DOV",
        "location": "(51.02671300502135, -113.98909015497624)"
      },
      "geometry": {
        "coordinates": [
          -113.98909,
          51.026713
        ],
        "type": "Point"
      },
      "id": "86293748b0dc6322008babaabedfcaeb"
    },
    {
      "type": "Feature",
      "properties": {
        "TYPE": "Hospital",
        "NAME": "South Health Campus",
        "ADDRESS": "4448 FRONT ST SE",
        "COMM_CODE": "SET",
        "location": "(50.88210185113848, -113.95170381192895)"
      },
      "geometry": {
        "coordinates": [
          -113.951703,
          50.882101
        ],
        "type": "Point"
      },
      "id": "877336ac4475738719e2c5710f83090f"
    },
    {
      "type": "Feature",
      "properties": {
        "TYPE": "PHS Clinic",
        "NAME": "East Calgary Health Centre",
        "ADDRESS": "4715 8 AV SE",
        "COMM_CODE": "FLN",
        "location": "(51.04504854027524, -113.9672200855659)"
      },
      "geometry": {
        "coordinates": [
          -113.96722,
          51.045048
        ],
        "type": "Point"
      },
      "id": "8997124e3a6fecfe94f9bc4c0bfeb9bc"
    },
    {
      "type": "Feature",
      "properties": {
        "TYPE": "Community Centre",
        "NAME": "Sunalta Community Centre",
        "ADDRESS": "1627 10 AV SW",
        "COMM_CODE": "SNA",
        "location": "(51.04417435024193, -114.09833433626284)"
      },
      "geometry": {
        "coordinates": [
          -114.098334,
          51.044174
        ],
        "type": "Point"
      },
      "id": "8b2e4f1f606ac3ed053ca67ccb9b786d"
    },
    {
      "type": "Feature",
      "properties": {
        "TYPE": "Community Centre",
        "NAME": "Highwood Community Centre",
        "ADDRESS": "16 Harlow AV NW",
        "COMM_CODE": "HIW",
        "location": "(51.09081185306712, -114.0773512197879)"
      },
      "geometry": {
        "coordinates": [
          -114.077351,
          51.090811
        ],
        "type": "Point"
      },
      "id": "8cf6a61345c9bcb37b72a37b05a9436d"
    },
    {
      "type": "Feature",
      "properties": {
        "TYPE": "PHS Clinic",
        "NAME": "Thornhill Community Health Centre",
        "ADDRESS": "6617 Centre ST NW",
        "COMM_CODE": "HUN",
        "location": "(51.11218619333126, -114.06391459432675)"
      },
      "geometry": {
        "coordinates": [
          -114.063914,
          51.112186
        ],
        "type": "Point"
      },
      "id": "931beaa1011ad50db15de2cd31d5eb70"
    },
    {
      "type": "Feature",
      "properties": {
        "TYPE": "Attraction",
        "NAME": "Calgary Chamber of Commerce",
        "ADDRESS": "237 8 Ave SE",
        "COMM_CODE": "DNC",
        "location": "(51.04763278161237, -114.06323328944796)"
      },
      "geometry": {
        "coordinates": [
          -114.063233,
          51.047632
        ],
        "type": "Point"
      },
      "id": "936dcaf7e8d0d10220c0bdb984c5ff56"
    },
    {
      "type": "Feature",
      "properties": {
        "TYPE": "Community Centre",
        "NAME": "Elbow Park Community Centre",
        "ADDRESS": "800 34 AV SW",
        "COMM_CODE": "EPK",
        "location": "(51.023461881343515, -114.08217549332538)"
      },
      "geometry": {
        "coordinates": [
          -114.082175,
          51.023461
        ],
        "type": "Point"
      },
      "id": "93b1d0c17228e78b75890a0200eb025a"
    },
    {
      "type": "Feature",
      "properties": {
        "TYPE": "Library",
        "NAME": "Louise Riley Library",
        "ADDRESS": "1904 14 AV NW",
        "COMM_CODE": "HOU",
        "location": "(51.06545716724518, -114.1043481504755)"
      },
      "geometry": {
        "coordinates": [
          -114.104348,
          51.065457
        ],
        "type": "Point"
      },
      "id": "93c3d8f0fb08cb18b54b7c64b3ce2b6b"
    },
    {
      "type": "Feature",
      "properties": {
        "TYPE": "Attraction",
        "NAME": "Calgary Chinese Cultural Centre",
        "ADDRESS": "197 1 ST SW",
        "COMM_CODE": "CHN",
        "location": "(51.05128465468019, -114.0653037065633)"
      },
      "geometry": {
        "coordinates": [
          -114.065303,
          51.051284
        ],
        "type": "Point"
      },
      "id": "982c3fca354fe83a4fba399a8233c017"
    },
    {
      "type": "Feature",
      "properties": {
        "TYPE": "Social Dev Ctr",
        "NAME": "West Area",
        "ADDRESS": "2539 33 AV SW",
        "COMM_CODE": "CFC",
        "location": "(51.023239371972956, -114.12380714878877)"
      },
      "geometry": {
        "coordinates": [
          -114.123807,
          51.023239
        ],
        "type": "Point"
      },
      "id": "986bba85d19c77e27397ae4d9deea7ee"
    },
    {
      "type": "Feature",
      "properties": {
        "TYPE": "Community Centre",
        "NAME": "Pineridge Community Centre",
        "ADDRESS": "6024 Rundlehorn DR NE",
        "COMM_CODE": "PIN",
        "location": "(51.071566954562215, -113.94525595698727)"
      },
      "geometry": {
        "coordinates": [
          -113.945255,
          51.071566
        ],
        "type": "Point"
      },
      "id": "98c69568bd19c4caa7a8a4b0d73519bd"
    },
    {
      "type": "Feature",
      "properties": {
        "TYPE": "PHS Clinic",
        "NAME": "Sheldon M. Chumir Health Centre",
        "ADDRESS": "1213 - 4 ST SW",
        "COMM_CODE": "BLN",
        "location": "(51.04116344159869, -114.07212956123551)"
      },
      "geometry": {
        "coordinates": [
          -114.072129,
          51.041163
        ],
        "type": "Point"
      },
      "id": "9bda0e53006d98c7425e3257a8eb1f37"
    },
    {
      "type": "Feature",
      "properties": {
        "TYPE": "Court",
        "NAME": "Federal Court of Appeal",
        "ADDRESS": "635 8 AV SW",
        "COMM_CODE": "DNC",
        "location": "(51.04563942132596, -114.07583807349852)"
      },
      "geometry": {
        "coordinates": [
          -114.075838,
          51.045639
        ],
        "type": "Point"
      },
      "id": "9c07e37fd64c4c533cb72f2963c9ecec"
    },
    {
      "type": "Feature",
      "properties": {
        "TYPE": "Community Centre",
        "NAME": "Rosscarrock Community Centre",
        "ADDRESS": "4411 10 AV SW",
        "COMM_CODE": "RCK",
        "location": "(51.04279764930228, -114.15075286617495)"
      },
      "geometry": {
        "coordinates": [
          -114.150752,
          51.042797
        ],
        "type": "Point"
      },
      "id": "9c47fd14d10bf516a583a124600e84b7"
    },
    {
      "type": "Feature",
      "properties": {
        "TYPE": "Social Dev Ctr",
        "NAME": "Bridgeland Place",
        "ADDRESS": "736 MCDOUGALL CO NE",
        "COMM_CODE": "BRD",
        "location": "(51.049950695912564, -114.04632193918891)"
      },
      "geometry": {
        "coordinates": [
          -114.046321,
          51.04995
        ],
        "type": "Point"
      },
      "id": "9c54c6b20c0629971ac357be07afd6c6"
    },
    {
      "type": "Feature",
      "properties": {
        "TYPE": "Attraction",
        "NAME": "Triangle Art Gallery",
        "ADDRESS": "#104 800 Macleod TR SE",
        "COMM_CODE": "DNC",
        "location": "(51.045075826509134, -114.05750055836236)"
      },
      "geometry": {
        "coordinates": [
          -114.0575,
          51.045075
        ],
        "type": "Point"
      },
      "id": "9cd54030afae7f1d180830d5084e9aa6"
    },
    {
      "type": "Feature",
      "properties": {
        "TYPE": "Community Centre",
        "NAME": "Willow Park / Mapleridge Community Centre",
        "ADDRESS": "680 Acadia DR SE",
        "COMM_CODE": "MPL",
        "location": "(50.95989272824391, -114.04333908100614)"
      },
      "geometry": {
        "coordinates": [
          -114.043339,
          50.959892
        ],
        "type": "Point"
      },
      "id": "9dbed329ad186f127219cabff47a13da"
    },
    {
      "type": "Feature",
      "properties": {
        "TYPE": "Community Centre",
        "NAME": "Windsor Park Community Centre",
        "ADDRESS": "5304 6 ST SW",
        "COMM_CODE": "WND",
        "location": "(51.00640371439741, -114.07854671214409)"
      },
      "geometry": {
        "coordinates": [
          -114.078546,
          51.006403
        ],
        "type": "Point"
      },
      "id": "9e187980c0a9e84fa9af675ac02a8ce8"
    },
    {
      "type": "Feature",
      "properties": {
        "TYPE": "Community Centre",
        "NAME": "West Hillhurst Community Centre",
        "ADDRESS": "1940 6 AV NW",
        "COMM_CODE": "WHL",
        "location": "(51.058180783465474, -114.10461004572657)"
      },
      "geometry": {
        "coordinates": [
          -114.10461,
          51.05818
        ],
        "type": "Point"
      },
      "id": "9ed02ff66b13f864fd88b3ce463d8d0f"
    },
    {
      "type": "Feature",
      "properties": {
        "TYPE": "Visitor Info",
        "NAME": "Tourism Calgary Tower",
        "ADDRESS": "101 9 AV SW",
        "COMM_CODE": "DNC",
        "location": "(51.044332451116105, -114.06306897165071)"
      },
      "geometry": {
        "coordinates": [
          -114.063068,
          51.044332
        ],
        "type": "Point"
      },
      "id": "9ff480eaaf1267a0cf83334017c95ab7"
    },
    {
      "type": "Feature",
      "properties": {
        "TYPE": "PHS Clinic",
        "NAME": "Village Square Community Health Centre",
        "ADDRESS": "2623 - 56 ST NE",
        "COMM_CODE": "PIN",
        "location": "(51.07553892796213, -113.95355569514419)"
      },
      "geometry": {
        "coordinates": [
          -113.953555,
          51.075538
        ],
        "type": "Point"
      },
      "id": "a174bc4833fc2bb8b5d773cf1e02d593"
    },
    {
      "type": "Feature",
      "properties": {
        "TYPE": "Attraction",
        "NAME": "Calgary Tower",
        "ADDRESS": "101 9 AV SW",
        "COMM_CODE": "DNC",
        "location": "(51.04448023768848, -114.06311258857386)"
      },
      "geometry": {
        "coordinates": [
          -114.063112,
          51.04448
        ],
        "type": "Point"
      },
      "id": "a3d55ad1d67bd638b8f1da668f8bd84a"
    },
    {
      "type": "Feature",
      "properties": {
        "TYPE": "Community Centre",
        "NAME": "Renfrew Community Association",
        "ADDRESS": "811 Radford RD NE",
        "COMM_CODE": "REN",
        "location": "(51.060184020846826, -114.04473790880562)"
      },
      "geometry": {
        "coordinates": [
          -114.044737,
          51.060184
        ],
        "type": "Point"
      },
      "id": "a4789cb096d1ce94cd2209ac87df4296"
    },
    {
      "type": "Feature",
      "properties": {
        "TYPE": "PHS Clinic",
        "NAME": "North Hill Community Health Centre",
        "ADDRESS": "1527 19 ST NW",
        "COMM_CODE": "HOU",
        "location": "(51.06532159267874, -114.10650709115143)"
      },
      "geometry": {
        "coordinates": [
          -114.106507,
          51.065321
        ],
        "type": "Point"
      },
      "id": "a588a3067e3285a0ad8d1fa445bf972b"
    },
    {
      "type": "Feature",
      "properties": {
        "TYPE": "Community Centre",
        "NAME": "Southview Community Centre",
        "ADDRESS": "2020 33 ST SE",
        "COMM_CODE": "SOV",
        "location": "(51.03332153619417, -113.9879884552357)"
      },
      "geometry": {
        "coordinates": [
          -113.987988,
          51.033321
        ],
        "type": "Point"
      },
      "id": "a5ee4d9f0511f9dd86335550f29a43e7"
    },
    {
      "type": "Feature",
      "properties": {
        "TYPE": "Community Centre",
        "NAME": "Inglewood Community Centre",
        "ADDRESS": "1740 24 AV SE",
        "COMM_CODE": "ING",
        "location": "(51.03251815243918, -114.01951750218385)"
      },
      "geometry": {
        "coordinates": [
          -114.019517,
          51.032518
        ],
        "type": "Point"
      },
      "id": "a60e5d1b364072b282e16bd43ac077c9"
    },
    {
      "type": "Feature",
      "properties": {
        "TYPE": "Community Centre",
        "NAME": "St. Andrews Heights Community Centre",
        "ADDRESS": "2504 13 AV NW",
        "COMM_CODE": "STA",
        "location": "(51.06404098711891, -114.12136097042293)"
      },
      "geometry": {
        "coordinates": [
          -114.12136,
          51.06404
        ],
        "type": "Point"
      },
      "id": "a66effb6017c7e19bd4a6ba4c2fdf8b4"
    },
    {
      "type": "Feature",
      "properties": {
        "TYPE": "Library",
        "NAME": "Forest Lawn Branch",
        "ADDRESS": "4807 8 AV SE",
        "COMM_CODE": "FLN",
        "location": "(51.044805584747444, -113.96528388609507)"
      },
      "geometry": {
        "coordinates": [
          -113.965283,
          51.044805
        ],
        "type": "Point"
      },
      "id": "aa1445c5b10810aa8c6e3791b21d5a82"
    },
    {
      "type": "Feature",
      "properties": {
        "TYPE": "Community Centre",
        "NAME": "Bankview Community Centre",
        "ADDRESS": "2418 17 ST SW",
        "COMM_CODE": "BNK",
        "location": "(51.03252312936438, -114.10149710486294)"
      },
      "geometry": {
        "coordinates": [
          -114.101497,
          51.032523
        ],
        "type": "Point"
      },
      "id": "abd53fc1c59b46006af4acb9f9acc3fd"
    },
    {
      "type": "Feature",
      "properties": {
        "TYPE": "Community Centre",
        "NAME": "Cambrian Heights Community Centre",
        "ADDRESS": "600 Northmount DR NW",
        "COMM_CODE": "CAM",
        "location": "(51.086828755847634, -114.08738199941789)"
      },
      "geometry": {
        "coordinates": [
          -114.087381,
          51.086828
        ],
        "type": "Point"
      },
      "id": "ac83ed25909c2af1afb872fb89a4f86b"
    },
    {
      "type": "Feature",
      "properties": {
        "TYPE": "Attraction",
        "NAME": "Canada's Sports Hall of Fame",
        "ADDRESS": "169 Canada Olympic Road SW",
        "COMM_CODE": "COP",
        "location": "(51.083460590375374, -114.22199246540958)"
      },
      "geometry": {
        "coordinates": [
          -114.221992,
          51.08346
        ],
        "type": "Point"
      },
      "id": "ada5a44f94149328b55787369c79a3d6"
    },
    {
      "type": "Feature",
      "properties": {
        "TYPE": "Community Centre",
        "NAME": "Strathcona/Christie Park Community Centre",
        "ADDRESS": "277 Strathcona DR SW",
        "COMM_CODE": "STR",
        "location": "(51.04727008025469, -114.17996942904307)"
      },
      "geometry": {
        "coordinates": [
          -114.179969,
          51.04727
        ],
        "type": "Point"
      },
      "id": "af349bc70488545ade5a1973350c3a0f"
    },
    {
      "type": "Feature",
      "properties": {
        "TYPE": "Community Centre",
        "NAME": "Elboya Heights Community Centre",
        "ADDRESS": "416 Park AV SW",
        "COMM_CODE": "EYA",
        "location": "(51.01536525830262, -114.07275204611734)"
      },
      "geometry": {
        "coordinates": [
          -114.072752,
          51.015365
        ],
        "type": "Point"
      },
      "id": "af8f63c6e239054e284d4d293f077e5c"
    },
    {
      "type": "Feature",
      "properties": {
        "TYPE": "Community Centre",
        "NAME": "Crossroads Community Centre",
        "ADDRESS": "1803 14 AV NE",
        "COMM_CODE": "MAL",
        "location": "(51.06516302493362, -114.01913004295139)"
      },
      "geometry": {
        "coordinates": [
          -114.01913,
          51.065163
        ],
        "type": "Point"
      },
      "id": "b1847273bfa1d3e8bc32c4b94ecd8834"
    },
    {
      "type": "Feature",
      "properties": {
        "TYPE": "Attraction",
        "NAME": "Glenbow Alberta Museum",
        "ADDRESS": "130 9 AV SE",
        "COMM_CODE": "DNC",
        "location": "(51.04470610101934, -114.06112369577545)"
      },
      "geometry": {
        "coordinates": [
          -114.061123,
          51.044706
        ],
        "type": "Point"
      },
      "id": "b190e07e002b512806b780123f5a7bcc"
    },
    {
      "type": "Feature",
      "properties": {
        "TYPE": "Community Centre",
        "NAME": "Scarboro Community Centre",
        "ADDRESS": "1727 14 AV SW",
        "COMM_CODE": "SNA",
        "location": "(51.04040341906903, -114.10118400627381)"
      },
      "geometry": {
        "coordinates": [
          -114.101184,
          51.040403
        ],
        "type": "Point"
      },
      "id": "b21f61f2e3906bae198f8f4ee6c90267"
    },
    {
      "type": "Feature",
      "properties": {
        "TYPE": "Community Centre",
        "NAME": "Rutland Park Community Centre",
        "ADDRESS": "3130 40 AV SW",
        "COMM_CODE": "RUT",
        "location": "(51.018387743843064, -114.13526594751386)"
      },
      "geometry": {
        "coordinates": [
          -114.135265,
          51.018387
        ],
        "type": "Point"
      },
      "id": "b2a0fcbde2c542a36edbc0421c9850fa"
    },
    {
      "type": "Feature",
      "properties": {
        "TYPE": "Community Centre",
        "NAME": "Calgary Marlborough Community Centre",
        "ADDRESS": "636 Marlborough WY NE",
        "COMM_CODE": "MRL",
        "location": "(51.0582661000614, -113.97428871267957)"
      },
      "geometry": {
        "coordinates": [
          -113.974288,
          51.058266
        ],
        "type": "Point"
      },
      "id": "b2ba9bfed05c7bbb902425cc2444c1ae"
    },
    {
      "type": "Feature",
      "properties": {
        "TYPE": "Social Dev Ctr",
        "NAME": "East Area",
        "ADDRESS": "1011 52 ST SE",
        "COMM_CODE": "FLN",
        "location": "(51.04286372286171, -113.95869132027342)"
      },
      "geometry": {
        "coordinates": [
          -113.958691,
          51.042863
        ],
        "type": "Point"
      },
      "id": "b48ba1f33c2349ab3950d8116f4c7885"
    },
    {
      "type": "Feature",
      "properties": {
        "TYPE": "Community Centre",
        "NAME": "Beddington Heights Community Centre",
        "ADDRESS": "375 Bermuda DR NW",
        "COMM_CODE": "BED",
        "location": "(51.13164348498047, -114.08517247675093)"
      },
      "geometry": {
        "coordinates": [
          -114.085172,
          51.131643
        ],
        "type": "Point"
      },
      "id": "b51479bfcffbc0ce0db34a363319f1ed"
    },
    {
      "type": "Feature",
      "properties": {
        "TYPE": "Attraction",
        "NAME": "The Military Museums",
        "ADDRESS": "4520 Crowchild TR SW",
        "COMM_CODE": "ALT",
        "location": "(51.013504259568315, -114.11455574951816)"
      },
      "geometry": {
        "coordinates": [
          -114.114555,
          51.013504
        ],
        "type": "Point"
      },
      "id": "b51d8508097c43f7e3ee40df47b15d31"
    },
    {
      "type": "Feature",
      "properties": {
        "TYPE": "Social Dev Ctr",
        "NAME": "South Area",
        "ADDRESS": "502 HERITAGE DR SW",
        "COMM_CODE": "KIN",
        "location": "(50.98313705070583, -114.07435086091301)"
      },
      "geometry": {
        "coordinates": [
          -114.07435,
          50.983137
        ],
        "type": "Point"
      },
      "id": "b59accf0cb7ca2405511753d449e78df"
    },
    {
      "type": "Feature",
      "properties": {
        "TYPE": "Community Centre",
        "NAME": "Capitol Hill Community Centre",
        "ADDRESS": "1531 21 AV NW",
        "COMM_CODE": "CAP",
        "location": "(51.07127566270025, -114.09645862486829)"
      },
      "geometry": {
        "coordinates": [
          -114.096458,
          51.071275
        ],
        "type": "Point"
      },
      "id": "b98221cd061997c11b4456232669ea07"
    },
    {
      "type": "Feature",
      "properties": {
        "TYPE": "Library",
        "NAME": "Judith Umbach Library",
        "ADDRESS": "6617 CENTRE ST N",
        "COMM_CODE": "HUN",
        "location": "(51.11187981745397, -114.06396773938215)"
      },
      "geometry": {
        "coordinates": [
          -114.063967,
          51.111879
        ],
        "type": "Point"
      },
      "id": "b984c245ded9b1c9a31c90b1c2a84e7c"
    },
    {
      "type": "Feature",
      "properties": {
        "TYPE": "Community Centre",
        "NAME": "Hounsfield Heights/Briar Hill Community Centre",
        "ADDRESS": "1922 14 AV NW",
        "COMM_CODE": "HOU",
        "location": "(51.0662268958542, -114.10410759347351)"
      },
      "geometry": {
        "coordinates": [
          -114.104107,
          51.066226
        ],
        "type": "Point"
      },
      "id": "b9f9623daa41914d9d6c3ad476780b77"
    },
    {
      "type": "Feature",
      "properties": {
        "TYPE": "Attraction",
        "NAME": "TELUS Spark  Centre",
        "ADDRESS": "220 ST GEORGES DR NE",
        "COMM_CODE": "REN",
        "location": "(51.05384024422898, -114.02458466607398)"
      },
      "geometry": {
        "coordinates": [
          -114.024584,
          51.05384
        ],
        "type": "Point"
      },
      "id": "ba4dd9064903fa0cf79e5777cab5c237"
    },
    {
      "type": "Feature",
      "properties": {
        "TYPE": "Community Centre",
        "NAME": "Glamorgan Community Centre",
        "ADDRESS": "4207 41 AV SW",
        "COMM_CODE": "GLA",
        "location": "(51.01736147213117, -114.14516898574892)"
      },
      "geometry": {
        "coordinates": [
          -114.145168,
          51.017361
        ],
        "type": "Point"
      },
      "id": "ba6aa8dca5e47d49fafdfcc7b8dd4c17"
    },
    {
      "type": "Feature",
      "properties": {
        "TYPE": "Community Centre",
        "NAME": "Huntington Hills Community Centre",
        "ADDRESS": "520 78 AV NW",
        "COMM_CODE": "HUN",
        "location": "(51.12372675642276, -114.07227849946028)"
      },
      "geometry": {
        "coordinates": [
          -114.072278,
          51.123726
        ],
        "type": "Point"
      },
      "id": "bb9e75b0b6410d11fc641ffbc11f1505"
    },
    {
      "type": "Feature",
      "properties": {
        "TYPE": "Library",
        "NAME": "Village Square Library",
        "ADDRESS": "2623 56 ST NE",
        "COMM_CODE": "PIN",
        "location": "(51.07538752061588, -113.95455439191234)"
      },
      "geometry": {
        "coordinates": [
          -113.954554,
          51.075387
        ],
        "type": "Point"
      },
      "id": "bdbbcaea3f1a4c7eff3170e10c88d16d"
    },
    {
      "type": "Feature",
      "properties": {
        "TYPE": "Community Centre",
        "NAME": "Fairview Community Centre",
        "ADDRESS": "8038 Fairmount DR SE",
        "COMM_CODE": "FAI",
        "location": "(50.98251763288699, -114.05868999355175)"
      },
      "geometry": {
        "coordinates": [
          -114.058689,
          50.982517
        ],
        "type": "Point"
      },
      "id": "be12015658391329742e92f3415bfa30"
    },
    {
      "type": "Feature",
      "properties": {
        "TYPE": "Community Centre",
        "NAME": "Westgate Community Centre",
        "ADDRESS": "4943 8 AV SW",
        "COMM_CODE": "WGT",
        "location": "(51.044633072531504, -114.15789734393195)"
      },
      "geometry": {
        "coordinates": [
          -114.157897,
          51.044633
        ],
        "type": "Point"
      },
      "id": "c05cb0134e378d6b987636ea5f05620a"
    },
    {
      "type": "Feature",
      "properties": {
        "TYPE": "Community Centre",
        "NAME": "Bridgeland / Riverside Community Centre",
        "ADDRESS": "917 Centre Av NE",
        "COMM_CODE": "BRD",
        "location": "(51.050074042928564, -114.03994198208092)"
      },
      "geometry": {
        "coordinates": [
          -114.039941,
          51.050074
        ],
        "type": "Point"
      },
      "id": "c1406f134d00386fd15406695d509664"
    },
    {
      "type": "Feature",
      "properties": {
        "TYPE": "Library",
        "NAME": "Quarry Park Library",
        "ADDRESS": "108 Quarry Park RD SE",
        "COMM_CODE": "DDG",
        "location": "(50.96158777667302, -114.00605942056835)"
      },
      "geometry": {
        "coordinates": [
          -114.006059,
          50.961587
        ],
        "type": "Point"
      },
      "id": "c1ccbe1640c4106a1b1fbb3d33c318cb"
    },
    {
      "type": "Feature",
      "properties": {
        "TYPE": "Community Centre",
        "NAME": "Chaparral Residents Association",
        "ADDRESS": "225 CHAPARRAL DR SE",
        "COMM_CODE": "CHA",
        "location": "(50.88636251240058, -114.03641956715506)"
      },
      "geometry": {
        "coordinates": [
          -114.036419,
          50.886362
        ],
        "type": "Point"
      },
      "id": "c302d0960e342fb29f781664144c1c9e"
    },
    {
      "type": "Feature",
      "properties": {
        "TYPE": "Community Centre",
        "NAME": "Marlborough Park Community Centre",
        "ADDRESS": "6021 Madigan DR NE",
        "COMM_CODE": "MPK",
        "location": "(51.0600450440598, -113.94248694302783)"
      },
      "geometry": {
        "coordinates": [
          -113.942486,
          51.060045
        ],
        "type": "Point"
      },
      "id": "c494209b97eb0e87ce475933a38ea4c5"
    },
    {
      "type": "Feature",
      "properties": {
        "TYPE": "Community Centre",
        "NAME": "Lakeview Community Centre",
        "ADDRESS": "6110 34 ST SW",
        "COMM_CODE": "LKV",
        "location": "(50.998359742341016, -114.13617740362398)"
      },
      "geometry": {
        "coordinates": [
          -114.136177,
          50.998359
        ],
        "type": "Point"
      },
      "id": "c4bf1a73e28a89984868d60787cf1d96"
    },
    {
      "type": "Feature",
      "properties": {
        "TYPE": "Community Centre",
        "NAME": "Saddle Ridge Community Centre",
        "ADDRESS": "7614 42 ST NE",
        "COMM_CODE": "SRI",
        "location": "(51.12084343878063, -113.97285897998094)"
      },
      "geometry": {
        "coordinates": [
          -113.972858,
          51.120843
        ],
        "type": "Point"
      },
      "id": "c5b3b37dc3faa89a8f1731ff8dfaf8ee"
    },
    {
      "type": "Feature",
      "properties": {
        "TYPE": "Community Centre",
        "NAME": "South Calgary Community Centre",
        "ADDRESS": "3130 16 ST SW",
        "COMM_CODE": "SOC",
        "location": "(51.02599472198563, -114.09830938027513)"
      },
      "geometry": {
        "coordinates": [
          -114.098309,
          51.025994
        ],
        "type": "Point"
      },
      "id": "c6e480b9cbc6466d4929bb2dee773b1f"
    },
    {
      "type": "Feature",
      "properties": {
        "TYPE": "Attraction",
        "NAME": "Spruce Meadows Equestrian Centre",
        "ADDRESS": "18011 Spruce Meadows WY SW",
        "COMM_CODE": "",
        "location": "(50.88956489509549, -114.09433006613926)"
      },
      "geometry": {
        "coordinates": [
          -114.09433,
          50.889564
        ],
        "type": "Point"
      },
      "id": "c82901676c8d224f9e5513af54652dc3"
    },
    {
      "type": "Feature",
      "properties": {
        "TYPE": "Attraction",
        "NAME": "Inglewood Bird Sanctuary",
        "ADDRESS": "2425 9 AV SE",
        "COMM_CODE": "ING",
        "location": "(51.030095793296894, -114.0087423751395)"
      },
      "geometry": {
        "coordinates": [
          -114.008742,
          51.030095
        ],
        "type": "Point"
      },
      "id": "c8dfceab49d4ece127ff7a164eaef74e"
    },
    {
      "type": "Feature",
      "properties": {
        "TYPE": "Library",
        "NAME": "Bowness Library",
        "ADDRESS": "6532 BOWNESS RD NW",
        "COMM_CODE": "BOW",
        "location": "(51.087319476786774, -114.18302758028041)"
      },
      "geometry": {
        "coordinates": [
          -114.183027,
          51.087319
        ],
        "type": "Point"
      },
      "id": "cb082fc7ce34beb73c1c110f074705e3"
    },
    {
      "type": "Feature",
      "properties": {
        "TYPE": "Community Centre",
        "NAME": "North Haven Community Centre",
        "ADDRESS": "5003 North Haven DR NW",
        "COMM_CODE": "NHV",
        "location": "(51.099097726092864, -114.08662318987814)"
      },
      "geometry": {
        "coordinates": [
          -114.086623,
          51.099097
        ],
        "type": "Point"
      },
      "id": "cb23ec1d3b720e6292dd606136db52f7"
    },
    {
      "type": "Feature",
      "properties": {
        "TYPE": "Community Centre",
        "NAME": "North Glenmore Park Community Centre",
        "ADDRESS": "2231 Longridge DR SW",
        "COMM_CODE": "NGM",
        "location": "(50.99811739400991, -114.11206037488374)"
      },
      "geometry": {
        "coordinates": [
          -114.11206,
          50.998117
        ],
        "type": "Point"
      },
      "id": "cb3147a25729e82c9edcaa9d3507bbee"
    },
    {
      "type": "Feature",
      "properties": {
        "TYPE": "Attraction",
        "NAME": "Devonian Gardens -  The CORE Shopping Centre",
        "ADDRESS": "317 7 AV SW",
        "COMM_CODE": "DNC",
        "location": "(51.04653467951193, -114.0690586995268)"
      },
      "geometry": {
        "coordinates": [
          -114.069058,
          51.046534
        ],
        "type": "Point"
      },
      "id": "cc03908ecaa53688437f5d13d6bec62b"
    },
    {
      "type": "Feature",
      "properties": {
        "TYPE": "Community Centre",
        "NAME": "Beltline Victoria and Connaught Community Centre",
        "ADDRESS": "1302 6 ST SE",
        "COMM_CODE": "BLN",
        "location": "(51.039996621460574, -114.04795765838207)"
      },
      "geometry": {
        "coordinates": [
          -114.047957,
          51.039996
        ],
        "type": "Point"
      },
      "id": "cf2ede3fe402d186e87237720b8eb46b"
    },
    {
      "type": "Feature",
      "properties": {
        "TYPE": "Community Centre",
        "NAME": "Spruce Cliff Community Centre",
        "ADDRESS": "3375 Spruce DR SW",
        "COMM_CODE": "SPR",
        "location": "(51.04750374462838, -114.13632989210797)"
      },
      "geometry": {
        "coordinates": [
          -114.136329,
          51.047503
        ],
        "type": "Point"
      },
      "id": "d04eac1c99f72b2f4cee9621313b8b1a"
    },
    {
      "type": "Feature",
      "properties": {
        "TYPE": "Attraction",
        "NAME": "Calgary Stampeders Football - McMahon Stadium",
        "ADDRESS": "1817 Crowchild TR NW",
        "COMM_CODE": "UOC",
        "location": "(51.07040501943504, -114.1182079300792)"
      },
      "geometry": {
        "coordinates": [
          -114.118207,
          51.070405
        ],
        "type": "Point"
      },
      "id": "d0cf25540ac6c440d5d96eb7e3f66b36"
    },
    {
      "type": "Feature",
      "properties": {
        "TYPE": "Community Centre",
        "NAME": "Thorncliffe/Greenview Community Centre",
        "ADDRESS": "5600 Centre ST NE",
        "COMM_CODE": "THO",
        "location": "(51.10120629803327, -114.06161252089136)"
      },
      "geometry": {
        "coordinates": [
          -114.061612,
          51.101206
        ],
        "type": "Point"
      },
      "id": "d2901ced2d26cfa21bf248675eea5d2d"
    },
    {
      "type": "Feature",
      "properties": {
        "TYPE": "Community Centre",
        "NAME": "Woodcreek Community Centre",
        "ADDRESS": "1991 Woodview DR SW",
        "COMM_CODE": "WOO",
        "location": "(50.941111899205765, -114.10487059728527)"
      },
      "geometry": {
        "coordinates": [
          -114.10487,
          50.941111
        ],
        "type": "Point"
      },
      "id": "d665a12f1a4cb79576332269e6afee9b"
    },
    {
      "type": "Feature",
      "properties": {
        "TYPE": "Court",
        "NAME": "Alberta Provincial Court (Rural)",
        "ADDRESS": "# 401-S 601 5 ST SW",
        "COMM_CODE": "DNC",
        "location": "(51.04692560365985, -114.074123212687)"
      },
      "geometry": {
        "coordinates": [
          -114.074123,
          51.046925
        ],
        "type": "Point"
      },
      "id": "d82cfb680983718fe9f2263eca944adf"
    },
    {
      "type": "Feature",
      "properties": {
        "TYPE": "Community Centre",
        "NAME": "Lake Bonavista Community Centre",
        "ADDRESS": "1401 Acadia DR SW",
        "COMM_CODE": "LKB",
        "location": "(50.93694560472317, -114.04921183932436)"
      },
      "geometry": {
        "coordinates": [
          -114.049211,
          50.936945
        ],
        "type": "Point"
      },
      "id": "da5be2232ea4a8f447f919ca5cc8f246"
    },
    {
      "type": "Feature",
      "properties": {
        "TYPE": "Community Centre",
        "NAME": "Winston Heights/Mountview Community Centre",
        "ADDRESS": "520 27 AV NE",
        "COMM_CODE": "WIN",
        "location": "(51.07736047022461, -114.05212058905765)"
      },
      "geometry": {
        "coordinates": [
          -114.05212,
          51.07736
        ],
        "type": "Point"
      },
      "id": "dac9011a03a506ff5b02f1e91699b957"
    },
    {
      "type": "Feature",
      "properties": {
        "TYPE": "Attraction",
        "NAME": "Fort Calgary",
        "ADDRESS": "750 9 AV SE",
        "COMM_CODE": "DNE",
        "location": "(51.044058796792875, -114.04518834889905)"
      },
      "geometry": {
        "coordinates": [
          -114.045188,
          51.044058
        ],
        "type": "Point"
      },
      "id": "db188e683f5d863d85d7bcd0f4c58000"
    },
    {
      "type": "Feature",
      "properties": {
        "TYPE": "Community Centre",
        "NAME": "Lake Bonavista Downs Community Centre",
        "ADDRESS": "1418 Lake Ontario RD SE",
        "COMM_CODE": "BDO",
        "location": "(50.941873148895105, -114.03191627422262)"
      },
      "geometry": {
        "coordinates": [
          -114.031916,
          50.941873
        ],
        "type": "Point"
      },
      "id": "dbbc34b917fc5419c78a429be3e21bca"
    },
    {
      "type": "Feature",
      "properties": {
        "TYPE": "Community Centre",
        "NAME": "Parkland Community Centre",
        "ADDRESS": "505 Parkvalley RD SE",
        "COMM_CODE": "PKL",
        "location": "(50.9180279952265, -114.02624587819763)"
      },
      "geometry": {
        "coordinates": [
          -114.026245,
          50.918027
        ],
        "type": "Point"
      },
      "id": "df9a04dc86cdb476583bebb967c05ca6"
    },
    {
      "type": "Feature",
      "properties": {
        "TYPE": "Community Centre",
        "NAME": "Tuscany Community Centre",
        "ADDRESS": "212 Tuscany Way NW",
        "COMM_CODE": "TUS",
        "location": "(51.1245903809456, -114.24564461586554)"
      },
      "geometry": {
        "coordinates": [
          -114.245644,
          51.12459
        ],
        "type": "Point"
      },
      "id": "dfacd0381c19d6cb54e3b5930b218bb1"
    },
    {
      "type": "Feature",
      "properties": {
        "TYPE": "Social Dev Ctr",
        "NAME": "Bowmont",
        "ADDRESS": "5000 BOWNESS RD NW",
        "COMM_CODE": "MON",
        "location": "(51.075525108644335, -114.16495514895213)"
      },
      "geometry": {
        "coordinates": [
          -114.164955,
          51.075525
        ],
        "type": "Point"
      },
      "id": "e3f1a9cf1426d7fc373e4f7115b4300e"
    },
    {
      "type": "Feature",
      "properties": {
        "TYPE": "Community Centre",
        "NAME": "Forest Heights/ Fonda Community Centre",
        "ADDRESS": "4909 Forego AV SE",
        "COMM_CODE": "FHT",
        "location": "(51.0492163000285, -113.96301697492487)"
      },
      "geometry": {
        "coordinates": [
          -113.963016,
          51.049216
        ],
        "type": "Point"
      },
      "id": "e45125e24d9afebde8b74b28c199e58e"
    },
    {
      "type": "Feature",
      "properties": {
        "TYPE": "Community Centre",
        "NAME": "Mid-Sun Community Centre",
        "ADDRESS": "50 Midpark RI SE",
        "COMM_CODE": "MID",
        "location": "(50.915437688872004, -114.05662520454203)"
      },
      "geometry": {
        "coordinates": [
          -114.056625,
          50.915437
        ],
        "type": "Point"
      },
      "id": "e4d7764156f8a5a5395bd157ac858381"
    },
    {
      "type": "Feature",
      "properties": {
        "TYPE": "Community Centre",
        "NAME": "Wildwood Community Centre",
        "ADDRESS": "4411 Spruce DR SW",
        "COMM_CODE": "WLD",
        "location": "(51.051886350376456, -114.15088014874473)"
      },
      "geometry": {
        "coordinates": [
          -114.15088,
          51.051886
        ],
        "type": "Point"
      },
      "id": "e5938dbbc19d003425a69527d7f67ec3"
    },
    {
      "type": "Feature",
      "properties": {
        "TYPE": "Visitor Info",
        "NAME": "Calgary Chamber of Commerce",
        "ADDRESS": "600 237 8 AV SE",
        "COMM_CODE": "DNC",
        "location": "(51.0451849276814, -114.05836753988049)"
      },
      "geometry": {
        "coordinates": [
          -114.058367,
          51.045184
        ],
        "type": "Point"
      },
      "id": "e5c14e094f3acdd997a2bcaf4ed41d24"
    },
    {
      "type": "Feature",
      "properties": {
        "TYPE": "Attraction",
        "NAME": "Calgary City Hall & Municipal Complex",
        "ADDRESS": "800 Macleod TR SE",
        "COMM_CODE": "DNC",
        "location": "(51.04539970470251, -114.05792721563786)"
      },
      "geometry": {
        "coordinates": [
          -114.057927,
          51.045399
        ],
        "type": "Point"
      },
      "id": "e5dbe49cd011edbd6667918a7c7a19c6"
    },
    {
      "type": "Feature",
      "properties": {
        "TYPE": "Community Centre",
        "NAME": "Highland Park Community Centre",
        "ADDRESS": "3716 2 ST NW",
        "COMM_CODE": "HPK",
        "location": "(51.08532170060153, -114.06624106050928)"
      },
      "geometry": {
        "coordinates": [
          -114.066241,
          51.085321
        ],
        "type": "Point"
      },
      "id": "e769e60e5843c73efe016c94568a553f"
    },
    {
      "type": "Feature",
      "properties": {
        "TYPE": "Community Centre",
        "NAME": "Abbeydale Community Centre",
        "ADDRESS": "821 Abbeydale DR NE",
        "COMM_CODE": "ABB",
        "location": "(51.05961291015646, -113.93202249812654)"
      },
      "geometry": {
        "coordinates": [
          -113.932022,
          51.059612
        ],
        "type": "Point"
      },
      "id": "e7b5feb4b8811de05be7359747c747ea"
    },
    {
      "type": "Feature",
      "properties": {
        "TYPE": "Attraction",
        "NAME": "Crossroads Market",
        "ADDRESS": "1235 26 AV SE",
        "COMM_CODE": "AYB",
        "location": "(51.03046930455906, -114.0346630730894)"
      },
      "geometry": {
        "coordinates": [
          -114.034663,
          51.030469
        ],
        "type": "Point"
      },
      "id": "e7f20feaabe06ec034089db41a45e890"
    },
    {
      "type": "Feature",
      "properties": {
        "TYPE": "Attraction",
        "NAME": "Fish Creek Provincial Park (Learning Centre)",
        "ADDRESS": "13931 Woodpath RD SW",
        "COMM_CODE": "FPK",
        "location": "(50.92760030790942, -114.13209621831759)"
      },
      "geometry": {
        "coordinates": [
          -114.132096,
          50.9276
        ],
        "type": "Point"
      },
      "id": "ea1c86bf49ecd22de3b121cbb8346f67"
    },
    {
      "type": "Feature",
      "properties": {
        "TYPE": "PHS Clinic",
        "NAME": "South Calgary Health Centre",
        "ADDRESS": "31 Sunpark Plaza SE",
        "COMM_CODE": "SDC",
        "location": "(50.90257527258776, -114.05857497443219)"
      },
      "geometry": {
        "coordinates": [
          -114.058574,
          50.902575
        ],
        "type": "Point"
      },
      "id": "ea95f9823155fb2dab9becfa3c848eb8"
    },
    {
      "type": "Feature",
      "properties": {
        "TYPE": "Attraction",
        "NAME": "Scotiabank Saddledome",
        "ADDRESS": "555 Saddledome RI SE",
        "COMM_CODE": "BLN",
        "location": "(51.037401331867834, -114.05197037229337)"
      },
      "geometry": {
        "coordinates": [
          -114.05197,
          51.037401
        ],
        "type": "Point"
      },
      "id": "ec45051b6c75f004a96a3e534aa246df"
    },
    {
      "type": "Feature",
      "properties": {
        "TYPE": "Library",
        "NAME": "Nicholls Family Library",
        "ADDRESS": "1421 33 ST SW",
        "COMM_CODE": "RCK",
        "location": "(51.04041136768391, -114.13582272876572)"
      },
      "geometry": {
        "coordinates": [
          -114.135822,
          51.040411
        ],
        "type": "Point"
      },
      "id": "f013f58099eef288e196359040ac3235"
    },
    {
      "type": "Feature",
      "properties": {
        "TYPE": "Community Centre",
        "NAME": "Haysboro Community Centre",
        "ADDRESS": "1204 89 AV SW",
        "COMM_CODE": "HAY",
        "location": "(50.97474554985502, -114.08778574697868)"
      },
      "geometry": {
        "coordinates": [
          -114.087785,
          50.974745
        ],
        "type": "Point"
      },
      "id": "f0604025bdc5895b083d478db2d839cf"
    },
    {
      "type": "Feature",
      "properties": {
        "TYPE": "Community Centre",
        "NAME": "Dalhousie Community Centre",
        "ADDRESS": "5432 Dalhart RD NW",
        "COMM_CODE": "DAL",
        "location": "(51.11284883790082, -114.15971614293404)"
      },
      "geometry": {
        "coordinates": [
          -114.159716,
          51.112848
        ],
        "type": "Point"
      },
      "id": "f3bc1465c1f073b07857ba20337c4fab"
    },
    {
      "type": "Feature",
      "properties": {
        "TYPE": "Social Dev Ctr",
        "NAME": "Forest Lawn",
        "ADDRESS": "3810 17 AV SE",
        "COMM_CODE": "FLN",
        "location": "(51.03794043735162, -113.97964875444161)"
      },
      "geometry": {
        "coordinates": [
          -113.979648,
          51.03794
        ],
        "type": "Point"
      },
      "id": "f457283299f8b3bb6ed837b7aae63240"
    },
    {
      "type": "Feature",
      "properties": {
        "TYPE": "Community Centre",
        "NAME": "Coach Hill/Patterson Heights Community Centre",
        "ADDRESS": "60 Patterson BV SW",
        "COMM_CODE": "PAT",
        "location": "(51.0613808546056, -114.17784663152653)"
      },
      "geometry": {
        "coordinates": [
          -114.177846,
          51.06138
        ],
        "type": "Point"
      },
      "id": "f8eef1f93a6468b120a3b29d46beda2d"
    },
    {
      "type": "Feature",
      "properties": {
        "TYPE": "Library",
        "NAME": "Memorial Park Library",
        "ADDRESS": "1221 2 ST SW",
        "COMM_CODE": "BLN",
        "location": "(51.041109003931396, -114.06905961378371)"
      },
      "geometry": {
        "coordinates": [
          -114.069059,
          51.041109
        ],
        "type": "Point"
      },
      "id": "f9eb970caa4afaf116a6e78aa07cc06f"
    },
    {
      "type": "Feature",
      "properties": {
        "TYPE": "Community Centre",
        "NAME": "Southwood Community Centre",
        "ADDRESS": "11 Sackville DR SW",
        "COMM_CODE": "SOW",
        "location": "(50.95678371616465, -114.08659309867875)"
      },
      "geometry": {
        "coordinates": [
          -114.086593,
          50.956783
        ],
        "type": "Point"
      },
      "id": "fae87e42fa699c750262b260295c6e2a"
    },
    {
      "type": "Feature",
      "properties": {
        "TYPE": "Attraction",
        "NAME": "Tsuu T'ina Culture Museum",
        "ADDRESS": "3700 Anderson RD SW",
        "COMM_CODE": "CED",
        "location": "(50.950478794101464, -114.13887303116144)"
      },
      "geometry": {
        "coordinates": [
          -114.138873,
          50.950478
        ],
        "type": "Point"
      },
      "id": "fb29aca5bb25d65288d256468f3e74f1"
    },
    {
      "type": "Feature",
      "properties": {
        "TYPE": "Community Centre",
        "NAME": "Mount Pleasant Community Centre",
        "ADDRESS": "",
        "COMM_CODE": "MOP",
        "location": "(51.07275856371514, -114.0743356266661)"
      },
      "geometry": {
        "coordinates": [
          -114.074335,
          51.072758
        ],
        "type": "Point"
      },
      "id": "fba3f6b4aed93ec35728496f2acc5766"
    },
    {
      "type": "Feature",
      "properties": {
        "TYPE": "Community Centre",
        "NAME": "Edgemont Community Centre",
        "ADDRESS": "33 Edgevalley CI NW",
        "COMM_CODE": "EDG",
        "location": "(51.12848692994772, -114.14417148714969)"
      },
      "geometry": {
        "coordinates": [
          -114.144171,
          51.128486
        ],
        "type": "Point"
      },
      "id": "fbbcae14a63d638d6c146361afa56238"
    },
    {
      "type": "Feature",
      "properties": {
        "TYPE": "Attraction",
        "NAME": "Grain Academy Museum",
        "ADDRESS": "20 Roundup WY SE",
        "COMM_CODE": "BLN",
        "location": "(51.03878519868122, -114.05699586689883)"
      },
      "geometry": {
        "coordinates": [
          -114.056995,
          51.038785
        ],
        "type": "Point"
      },
      "id": "fbccf0804da6132d7a3ac99babefc74e"
    },
    {
      "type": "Feature",
      "properties": {
        "TYPE": "Community Centre",
        "NAME": "Arbour Lake Community Centre",
        "ADDRESS": "12 Arbour Lake DR NW",
        "COMM_CODE": "ARB",
        "location": "(51.13309369009856, -114.2025770185727)"
      },
      "geometry": {
        "coordinates": [
          -114.202577,
          51.133093
        ],
        "type": "Point"
      },
      "id": "fc4e103f01ded4011b8725efc05c8b43"
    },
    {
      "type": "Feature",
      "properties": {
        "TYPE": "Library",
        "NAME": "Shawnessy Library",
        "ADDRESS": "333 SHAWVILLE BV SE",
        "COMM_CODE": "SHN",
        "location": "(50.89803403456662, -114.06395702504017)"
      },
      "geometry": {
        "coordinates": [
          -114.063957,
          50.898034
        ],
        "type": "Point"
      },
      "id": "fcd1206efbdb8693c616fc79deab4db7"
    },
    {
      "type": "Feature",
      "properties": {
        "TYPE": "Library",
        "NAME": "Saddletowne Library",
        "ADDRESS": "7556 FALCONRIDGE BV NE",
        "COMM_CODE": "MRT",
        "location": "(51.12028809665206, -113.94782479993012)"
      },
      "geometry": {
        "coordinates": [
          -113.947824,
          51.120288
        ],
        "type": "Point"
      },
      "id": "fd275502b8041a15a856cdd6b343773b"
    },
    {
      "type": "Feature",
      "properties": {
        "TYPE": "Community Centre",
        "NAME": "Forest Lawn Community Centre",
        "ADDRESS": "4020 26 AV SE",
        "COMM_CODE": "FLN",
        "location": "(51.03081979535198, -113.97681956969974)"
      },
      "geometry": {
        "coordinates": [
          -113.976819,
          51.030819
        ],
        "type": "Point"
      },
      "id": "fe90698fa61db18672404b41e074436d"
    },
    {
      "type": "Feature",
      "properties": {
        "TYPE": "Community Centre",
        "NAME": "Parkdale Community Centre",
        "ADDRESS": "3512 5 AV NW",
        "COMM_CODE": "PKD",
        "location": "(51.060514752049905, -114.13680689066544)"
      },
      "geometry": {
        "coordinates": [
          -114.136806,
          51.060514
        ],
        "type": "Point"
      },
      "id": "fea7dece1536abc3a7738f366403a4ca"
    }
  ],
  "type": "FeatureCollection"
}